City_ID,City,Country,Lat,Lng,Max Temp,Humidity,Cloudiness,Wind Speed,Current Description
0,Balkhash,KZ,46.844,74.9804,30.81,80,20,2.24,few clouds
1,Port Alfred,ZA,-33.5906,26.891,67.59,86,85,19.37,light rain
2,Seydi,TM,39.4816,62.9137,47.73,60,28,15.32,scattered clouds
3,Ostrovnoy,RU,68.0531,39.5131,11.12,74,90,23.58,overcast clouds
4,Bluff,NZ,-46.6,168.3333,55.8,56,8,23.47,clear sky
5,Merauke,ID,-8.4667,140.3333,86.41,62,97,8.01,overcast clouds
6,Hermanus,ZA,-34.4187,19.2345,59.9,90,100,7.29,light rain
7,Carnarvon,AU,-24.8667,113.6333,80.67,65,0,19.57,clear sky
8,Morant Bay,JM,17.8815,-76.4093,73.65,84,13,10.45,few clouds
9,Tautira,PF,-17.7333,-149.15,82.42,75,87,17.13,light rain
10,Rikitea,PF,-23.1203,-134.9692,76.73,75,97,7.96,overcast clouds
11,Punta Arenas,CL,-53.15,-70.9167,43.0,75,98,3.76,overcast clouds
12,Kashi,CN,39.4547,75.9797,37.27,27,100,0.74,overcast clouds
13,Tiksi,RU,71.6872,128.8694,-21.69,96,100,8.48,overcast clouds
14,Hauterive,FR,46.0901,3.4459,41.76,98,100,8.66,overcast clouds
15,Hobart,AU,-42.8794,147.3294,75.06,44,75,8.01,broken clouds
16,Ushuaia,AR,-54.8,-68.3,44.26,61,20,23.02,few clouds
17,Comodoro Rivadavia,AR,-45.8667,-67.5,58.41,76,27,5.21,scattered clouds
18,Lazaro Cardenas,MX,17.9583,-102.2,75.87,87,82,4.41,broken clouds
19,Busselton,AU,-33.65,115.3333,76.78,39,26,8.63,scattered clouds
20,Srednekolymsk,RU,67.45,153.6833,-45.0,99,91,4.32,overcast clouds
21,Vaini,TO,-21.2,-175.2,84.36,74,40,10.36,scattered clouds
22,Necochea,AR,-38.5473,-58.7368,52.03,85,0,8.12,clear sky
23,Dingle,PH,10.9995,122.6711,82.76,69,78,11.12,broken clouds
24,Mahebourg,MU,-20.4081,57.7,81.25,74,40,12.66,scattered clouds
25,Coquimbo,CL,-29.9533,-71.3436,58.33,86,64,2.42,broken clouds
26,Lebu,CL,-37.6167,-73.65,55.78,84,1,3.98,clear sky
27,Nome,US,64.5011,-165.4064,30.11,98,100,25.14,light snow
28,Sorland,NO,67.667,12.6934,19.47,64,6,12.73,clear sky
29,Georgetown,MY,5.4112,100.3354,84.15,67,20,8.01,few clouds
30,Tuktoyaktuk,CA,69.4541,-133.0374,-9.4,77,1,13.8,clear sky
31,Torrington,US,41.8007,-73.1212,46.15,74,96,1.99,overcast clouds
32,College,US,64.8569,-147.8028,13.66,84,90,0.0,overcast clouds
33,Smithers,CA,54.7804,-127.1743,20.32,92,100,1.5,light snow
34,Coahuayana,MX,18.7333,-103.6833,73.27,94,100,2.84,overcast clouds
35,Alenquer,BR,-1.9417,-54.7383,74.71,90,63,3.18,broken clouds
36,Kodiak,US,57.79,-152.4072,34.23,93,100,25.17,light rain
37,Plouzane,FR,48.3833,-4.6167,44.65,82,0,5.75,clear sky
38,Balkanabat,TM,39.5108,54.3671,53.51,34,98,4.7,overcast clouds
39,Torbay,CA,47.6666,-52.7314,29.75,79,20,19.57,few clouds
40,Mataura,NZ,-46.1927,168.8643,55.47,47,64,8.66,broken clouds
41,Sakakah,SA,29.9697,40.2064,49.57,57,6,4.09,clear sky
42,Petropavlovsk-Kamchatskiy,RU,53.0452,158.6483,28.99,64,75,11.18,broken clouds
43,Aloleng,PH,16.1307,119.7824,83.17,56,71,7.47,broken clouds
44,Atuona,PF,-9.8,-139.0333,78.69,77,4,18.25,clear sky
45,Anito,PH,12.4497,125.2886,78.35,86,84,12.12,broken clouds
46,Tual,ID,-5.6667,132.75,83.53,76,100,12.1,moderate rain
47,Saldanha,ZA,-33.0117,17.9442,61.02,86,100,15.97,overcast clouds
48,Kruisfontein,ZA,-34.0033,24.7314,62.89,87,84,16.55,light rain
49,Butaritari,KI,3.0707,172.7902,81.55,79,97,14.83,moderate rain
50,Fortuna,US,40.5982,-124.1573,50.36,74,90,0.0,overcast clouds
51,Luderitz,NA,-26.6481,15.1594,61.72,77,0,10.94,clear sky
52,Brae,GB,60.3964,-1.353,42.71,65,92,18.07,overcast clouds
53,Vila Velha,BR,-20.3297,-40.2925,75.15,92,20,1.01,few clouds
54,Mount Gambier,AU,-37.8333,140.7667,75.11,41,22,20.71,few clouds
55,Bethel,US,41.3712,-73.414,48.47,73,77,4.43,broken clouds
56,Codrington,AU,-38.2667,141.9667,69.12,54,65,21.21,broken clouds
57,Kollam,IN,8.8833,76.6,85.87,71,70,5.35,broken clouds
58,Leningradskiy,RU,69.3833,178.4167,-3.17,97,100,23.78,light snow
59,Sioux Lookout,CA,50.1001,-91.917,17.98,95,100,9.86,light snow
60,Dikson,RU,73.5069,80.5464,-14.94,99,95,8.7,overcast clouds
61,Jamestown,US,42.097,-79.2353,46.71,85,100,10.0,light rain
62,Norman Wells,CA,65.282,-126.8329,-12.71,80,38,5.32,scattered clouds
63,Olafsvik,IS,64.8945,-23.7142,41.0,79,95,20.36,moderate rain
64,Manoel Urbano,BR,-8.8389,-69.2597,71.76,100,99,2.01,overcast clouds
65,Laguna,US,38.421,-121.4238,53.65,100,1,3.44,clear sky
66,San Patricio,US,28.017,-97.5169,75.29,88,100,15.37,overcast clouds
67,Arraial Do Cabo,BR,-22.9661,-42.0278,73.53,92,61,17.6,light rain
68,Develi,TR,38.3906,35.4922,24.15,74,0,4.72,clear sky
69,Assiniboia,CA,49.6334,-105.9845,-3.35,93,97,10.07,overcast clouds
70,Port Elizabeth,ZA,-33.918,25.5701,66.49,88,0,9.22,clear sky
71,Bitkine,TD,11.9801,18.2138,72.55,24,92,6.42,overcast clouds
72,Upington,ZA,-28.4478,21.2561,61.54,62,0,9.19,clear sky
73,Lavrentiya,RU,65.5833,-171.0,24.37,96,100,13.42,snow
74,Saint George,US,37.1041,-113.5841,59.34,41,30,4.0,scattered clouds
75,Reyes,BO,-14.3167,-67.3833,72.39,100,100,2.57,overcast clouds
76,Cockburn Town,TC,21.4612,-71.1419,80.4,77,48,21.07,scattered clouds
77,Beringovskiy,RU,63.05,179.3167,2.07,81,100,16.46,overcast clouds
78,Thompson,CA,55.7435,-97.8558,-23.64,76,1,6.91,clear sky
79,Priargunsk,RU,50.3691,119.1012,19.58,77,9,9.31,clear sky
80,Zarubino,RU,42.63,131.0922,39.07,61,50,4.52,scattered clouds
81,Hilo,US,19.7297,-155.09,73.26,97,100,1.99,moderate rain
82,Cape Town,ZA,-33.9258,18.4232,60.12,90,90,1.99,light intensity drizzle
83,Sembe,CG,1.6481,14.5806,71.31,89,99,0.96,overcast clouds
84,Hovd,MN,48.0056,91.6419,25.0,39,100,2.3,overcast clouds
85,Nikolskoye,RU,59.7035,30.7861,-3.6,97,6,4.97,clear sky
86,Albany,US,42.6001,-73.9662,41.67,56,100,5.01,overcast clouds
87,Ovsyanka,RU,55.9575,92.5519,36.57,90,95,9.57,overcast clouds
88,Artigas,UY,-30.4,-56.4667,65.28,82,15,9.26,few clouds
89,Ajaccio,FR,42.0,8.9167,39.69,93,0,5.75,clear sky
90,Pindiga,NG,9.9833,10.9333,69.48,22,76,8.23,broken clouds
91,Tasiilaq,GL,65.6145,-37.6368,29.28,97,100,14.9,snow
92,Mangrol,IN,21.1167,70.1167,78.82,46,0,11.9,clear sky
93,Portland,US,45.5234,-122.6762,42.19,91,86,5.99,overcast clouds
94,Marawi,PH,7.9986,124.2928,74.64,83,82,6.55,broken clouds
95,Castro,BR,-24.7911,-50.0119,59.07,97,80,3.15,broken clouds
96,Mtwara,TZ,-10.2667,40.1833,80.28,81,99,5.91,light rain
97,Rio Tuba,PH,8.5061,117.4317,84.11,69,72,13.8,broken clouds
98,Khromtau,KZ,50.2503,58.4347,27.16,85,100,10.09,overcast clouds
99,Lompoc,US,34.6391,-120.4579,59.31,96,1,1.01,mist
100,Hambantota,LK,6.1241,81.1185,82.74,89,40,1.14,scattered clouds
101,Upernavik,GL,72.7868,-56.1549,27.25,88,100,9.37,overcast clouds
102,Codo,BR,-4.4553,-43.8856,75.47,90,91,1.74,overcast clouds
103,San Cristobal,VE,7.7669,-72.225,71.78,80,100,1.99,overcast clouds
104,Bakel,SN,14.905,-12.4568,73.51,16,99,10.16,overcast clouds
105,Eureka,US,40.8021,-124.1637,50.2,93,89,5.12,overcast clouds
106,Qaanaaq,GL,77.484,-69.3632,20.32,79,100,6.71,overcast clouds
107,Port Augusta,AU,-32.5,137.7667,84.7,35,36,11.65,scattered clouds
108,Pangkalanbuun,ID,-2.6833,111.6167,83.05,74,92,6.76,overcast clouds
109,Barra Do Garcas,BR,-15.89,-52.2567,71.74,96,33,1.57,scattered clouds
110,Touros,BR,-5.1989,-35.4608,76.1,79,30,13.71,scattered clouds
111,Iranshahr,IR,27.2025,60.6848,67.86,25,6,3.09,clear sky
112,Caxito,AO,-8.5785,13.6643,76.26,94,100,2.28,overcast clouds
113,Garissa,KE,-0.4536,39.6401,78.73,74,29,7.94,light rain
114,Yatou,CN,37.15,122.3833,52.65,54,100,11.68,overcast clouds
115,Provideniya,RU,64.3833,-173.3,28.51,80,40,11.18,scattered clouds
116,Airai,TL,-8.9266,125.4092,70.99,75,99,2.39,overcast clouds
117,Maniitsoq,GL,65.4167,-52.9,26.19,65,100,33.17,overcast clouds
118,Kaeo,NZ,-35.1,173.7833,75.33,78,82,8.12,broken clouds
119,Sabang,ID,5.8933,95.3214,81.93,73,87,13.85,overcast clouds
120,Orsha,BY,54.5153,30.4053,26.51,98,100,5.46,light snow
121,Arys,KZ,42.4252,68.795,44.82,57,5,4.54,clear sky
122,East London,ZA,-33.0153,27.9116,67.14,94,75,8.05,light rain
123,Tuatapere,NZ,-46.1333,167.6833,55.81,54,72,10.0,broken clouds
124,Severo-Kurilsk,RU,50.6789,156.125,34.95,84,92,16.8,light rain
125,Mar Del Plata,AR,-38.0023,-57.5575,63.88,84,20,11.01,few clouds
126,Chico,US,39.7285,-121.8375,46.49,93,1,4.61,clear sky
127,Rosa Zarate,EC,0.3333,-79.4667,72.27,92,100,2.59,light rain
128,Mugumu,TZ,-1.85,34.7,66.87,62,63,8.05,broken clouds
129,Kieta,PG,-6.2167,155.6333,83.03,78,100,0.54,light rain
130,Saint Anthony,US,45.0205,-93.218,31.15,82,90,8.01,light snow
131,Barrow,US,71.2906,-156.7887,12.58,92,100,12.84,overcast clouds
132,Sitka,US,57.0531,-135.33,28.06,89,73,4.65,broken clouds
133,Totness,SR,5.8833,-56.3167,76.3,92,100,9.46,overcast clouds
134,Miyako,JP,39.6367,141.9525,52.12,63,52,10.25,broken clouds
135,Kuytun,RU,54.3419,101.5036,21.18,79,81,3.49,broken clouds
136,Usoke,TZ,-5.1667,32.35,70.81,61,100,7.11,overcast clouds
137,Bertoua,CM,4.5833,13.6833,67.77,76,100,1.25,overcast clouds
138,Matina,CR,10.0761,-83.2895,75.02,91,81,3.02,broken clouds
139,Axim,GH,4.8699,-2.2405,79.09,86,41,6.33,scattered clouds
140,Taltal,CL,-25.4,-70.4833,60.98,79,91,1.9,overcast clouds
141,Hinton,CA,53.4001,-117.5857,9.1,85,100,5.46,overcast clouds
142,Tabory,RU,58.5198,64.5495,12.22,91,100,3.58,light snow
143,Vulcan,RO,45.3833,23.2667,36.84,98,100,3.56,overcast clouds
144,Meadow Lake,US,34.8014,-106.5436,51.28,37,1,8.59,clear sky
145,New Norfolk,AU,-42.7826,147.0587,74.7,40,92,5.99,light rain
146,Mehamn,NO,71.0357,27.8492,33.44,89,99,19.01,snow
147,Grenada,ES,37.1882,-3.6067,47.91,92,0,1.99,clear sky
148,Chimichagua,CO,9.2578,-73.8123,75.31,87,89,0.63,overcast clouds
149,Grindavik,IS,63.8424,-22.4338,37.87,93,75,13.8,broken clouds
150,Vao,NC,-22.6667,167.4833,76.84,82,100,12.77,overcast clouds
151,Victoria,HK,22.2855,114.1577,75.04,48,69,1.99,broken clouds
152,Puerto Ayora,EC,-0.7393,-90.3518,67.23,91,46,7.07,scattered clouds
153,Yakeshi,CN,49.2833,120.7333,16.11,89,8,11.01,clear sky
154,Faanui,PF,-16.4833,-151.75,80.76,75,22,13.51,light rain
155,Bauta,CU,22.9828,-82.5464,70.99,100,20,2.3,few clouds
156,Bengkulu,ID,-3.8004,102.2655,84.43,69,99,10.76,overcast clouds
157,Fiumicino,IT,41.7675,12.2291,48.94,82,40,9.22,moderate rain
158,Taoudenni,ML,22.6783,-3.9836,57.76,26,100,11.14,overcast clouds
159,Hasaki,JP,35.7333,140.8333,57.29,59,100,9.44,overcast clouds
160,Valle De Allende,MX,26.9333,-105.4,62.2,28,94,5.82,overcast clouds
161,Udachnyy,RU,66.4167,112.4,-22.56,67,77,5.17,broken clouds
162,Imeni Poliny Osipenko,RU,52.4201,136.4853,13.01,93,93,3.65,overcast clouds
163,Raga,SS,8.4596,25.678,71.94,26,96,3.83,overcast clouds
164,Mayskiy,RU,47.6931,40.1025,38.44,89,100,2.8,overcast clouds
165,Andrews,US,32.3187,-102.5457,59.09,44,1,10.36,clear sky
166,Bestobe,KZ,52.4994,73.0975,22.28,82,81,9.95,broken clouds
167,Gazanjyk,TM,39.2446,55.5154,49.57,52,100,2.13,overcast clouds
168,Coihaique,CL,-45.5752,-72.0662,48.99,97,23,4.14,few clouds
169,Gweta,BW,-20.1833,25.2333,75.56,62,100,8.05,overcast clouds
170,Paamiut,GL,61.994,-49.6678,23.56,70,100,13.09,light snow
171,Nyagan,RU,62.1406,65.3936,-17.16,100,76,1.86,broken clouds
172,Orshanka,RU,56.9161,47.8933,7.41,82,9,4.45,clear sky
173,Hithadhoo,MV,-0.6,73.0833,81.59,77,99,11.52,overcast clouds
174,Narsaq,GL,60.9167,-46.05,25.02,80,76,14.67,broken clouds
175,Yellowknife,CA,62.456,-114.3525,-21.44,77,1,4.61,clear sky
176,Namibe,AO,-15.1961,12.1522,71.01,69,10,3.89,clear sky
177,Half Moon Bay,US,37.4636,-122.4286,56.98,92,90,1.01,mist
178,Lewisporte,CA,49.2499,-55.0482,27.55,72,60,8.63,broken clouds
179,Hofn,IS,64.2539,-15.2082,42.57,95,100,18.23,light rain
180,Kavieng,PG,-2.5744,150.7967,83.46,76,91,10.89,moderate rain
181,Bandarbeyla,SO,9.4942,50.8122,78.67,58,7,15.88,clear sky
182,Acarau,BR,-2.8856,-40.12,80.89,80,58,15.73,broken clouds
183,Wajima,JP,37.4,136.9,48.52,88,99,4.07,overcast clouds
184,Guane,CU,22.2025,-84.0875,69.19,79,4,5.35,clear sky
185,Ruteng,ID,-8.6136,120.4721,69.64,79,99,0.72,overcast clouds
186,Kapaa,US,22.0752,-159.319,75.18,83,100,1.01,moderate rain
187,Savannah Bight,HN,16.45,-85.85,78.01,78,7,9.1,clear sky
188,Mantua,IT,45.1667,10.7833,40.44,91,90,4.0,overcast clouds
189,Kidal,ML,18.4411,1.4078,68.05,18,1,5.59,clear sky
190,Phalaborwa,ZA,-23.943,31.1411,74.43,68,96,1.63,light rain
191,Birao,CF,10.2849,22.7882,71.71,19,86,9.15,overcast clouds
192,Bavly,RU,54.393,53.2602,22.95,91,51,5.32,broken clouds
193,Verkhoyansk,RU,67.5447,133.385,-19.34,98,100,1.12,overcast clouds
194,Geraldton,AU,-28.7667,114.6,86.41,37,0,25.32,clear sky
195,Rincon,US,32.296,-81.2354,58.12,100,1,0.0,mist
196,Port Macquarie,AU,-31.4333,152.9167,73.89,69,89,6.78,moderate rain
197,Guerrero Negro,MX,27.9769,-114.0611,61.39,89,0,9.08,clear sky
198,Mwaya,TZ,-9.55,33.95,78.06,65,99,2.08,overcast clouds
199,Penzance,GB,50.1186,-5.5371,48.76,90,100,22.15,overcast clouds
200,Korla,CN,41.7597,86.1469,35.51,44,100,0.72,overcast clouds
201,Krasnyy Chikoy,RU,50.3643,108.7512,24.42,69,26,1.77,scattered clouds
202,Saskylakh,RU,71.9167,114.0833,-29.9,99,94,5.12,overcast clouds
203,Luba,GQ,3.4568,8.5547,80.64,80,97,4.07,light rain
204,Cap Malheureux,MU,-19.9842,57.6142,82.89,68,26,10.0,scattered clouds
205,Ahuimanu,US,21.4447,-157.8378,73.11,78,100,10.89,light rain
206,Maragogi,BR,-9.0122,-35.2225,76.5,85,18,10.63,few clouds
207,Qaqortoq,GL,60.7167,-46.0333,21.7,73,71,21.74,broken clouds
208,Chokurdakh,RU,70.6333,147.9167,-43.64,99,63,5.86,broken clouds
209,Avarua,CK,-21.2078,-159.775,78.85,83,14,5.75,light rain
210,Chuy,UY,-33.6971,-53.4616,61.92,93,54,5.48,broken clouds
211,Lagoa,PT,39.05,-27.9833,62.78,76,72,13.11,broken clouds
212,Rosarito,MX,32.3333,-117.0333,58.08,75,0,5.19,clear sky
213,Abha,SA,18.2164,42.5053,57.45,31,0,0.0,clear sky
214,Sorong,ID,-0.8833,131.25,84.83,74,100,8.75,overcast clouds
215,Champerico,GT,14.3,-91.9167,79.03,72,2,2.68,clear sky
216,Lewiston,US,44.1003,-70.2148,39.4,66,90,0.0,overcast clouds
217,Vostok,RU,46.4856,135.8833,30.54,94,100,8.32,light snow
218,Dandong,CN,40.1292,124.3947,41.67,76,100,5.66,overcast clouds
219,La Rioja,ES,42.25,-2.5,36.48,95,100,10.8,overcast clouds
220,Yangambi,CD,0.8102,24.4336,71.56,92,100,1.57,overcast clouds
221,Seddon,AU,-37.8068,144.8916,84.88,46,0,10.0,clear sky
222,Puerto Escondido,MX,15.85,-97.0667,77.74,77,0,4.32,clear sky
223,Naqadeh,IR,36.9553,45.388,40.6,73,70,2.73,broken clouds
224,Prijepolje,RS,43.3719,19.6406,37.04,100,100,0.65,overcast clouds
225,Freetown,SL,8.484,-13.2299,79.38,79,92,1.63,overcast clouds
226,Tabuk,PH,17.4189,121.4443,77.76,69,62,6.51,broken clouds
227,Lasa,IT,46.6166,10.7002,22.37,93,90,6.49,overcast clouds
228,Poum,NC,-20.2333,164.0167,81.63,73,25,13.24,scattered clouds
229,Sibu,MY,2.3,111.8167,75.24,97,100,0.51,overcast clouds
230,Santa Maria,BR,-29.6842,-53.8069,61.61,95,4,4.32,clear sky
231,Burayevo,RU,55.8407,55.4083,12.16,78,63,7.92,broken clouds
232,San Jeronimo,PE,-11.9472,-75.2829,49.89,87,100,0.49,overcast clouds
233,Kutum,SD,14.2,24.6667,59.9,23,2,5.82,clear sky
234,Baracoa,CU,20.3467,-74.4958,77.79,87,81,8.08,broken clouds
235,Salme,NP,28.0369,85.0942,61.68,38,1,5.28,clear sky
236,Mareeba,AU,-17.0,145.4333,93.43,42,8,9.22,clear sky
237,Aykhal,RU,66.0,111.5,-24.59,96,83,8.28,broken clouds
238,Bambous Virieux,MU,-20.3428,57.7575,81.21,74,40,12.66,scattered clouds
239,Hanko,FI,59.8333,22.95,6.85,87,79,13.94,broken clouds
240,Galle,LK,6.0367,80.217,83.12,72,59,4.16,broken clouds
241,Tateyama,JP,34.9833,139.8667,55.02,72,100,12.3,light rain
242,Port Keats,AU,-14.25,129.55,91.94,54,96,8.77,overcast clouds
243,Kotido,UG,2.9806,34.1331,71.55,59,82,12.33,broken clouds
244,Bredasdorp,ZA,-34.5322,20.0403,58.28,91,100,7.52,light rain
245,Port Lincoln,AU,-34.7333,135.8667,67.51,56,46,15.82,scattered clouds
246,Abu Dhabi,AE,24.4667,54.3667,71.96,82,2,1.99,clear sky
247,Sena Madureira,BR,-9.0656,-68.6569,71.82,99,100,2.17,overcast clouds
248,Chekhov,RU,55.1431,37.4711,26.83,96,100,3.71,overcast clouds
249,Kiruna,SE,67.8557,20.2251,-25.37,99,37,2.33,scattered clouds
250,Chapais,CA,49.7834,-74.8492,6.64,93,100,5.28,overcast clouds
251,Garowe,SO,8.4054,48.4845,70.92,58,11,9.06,few clouds
252,Qasigiannguit,GL,68.8193,-51.1922,21.67,61,87,21.18,overcast clouds
253,Krasnoarmeysk,RU,51.0239,45.6969,23.29,85,100,10.0,overcast clouds
254,Avera,US,33.194,-82.5271,57.7,79,34,6.33,scattered clouds
255,Price,US,39.5994,-110.8107,39.42,52,38,5.46,scattered clouds
256,Coos Bay,US,43.3665,-124.2179,47.01,97,1,0.0,clear sky
257,Iqaluit,CA,63.7506,-68.5145,11.93,61,90,18.99,light snow
258,Glamoc,BA,44.0458,16.8486,31.6,98,100,4.85,overcast clouds
259,Sao Filipe,CV,14.8961,-24.4956,75.47,72,64,11.63,broken clouds
260,Khatanga,RU,71.9667,102.5,-13.29,97,100,7.47,overcast clouds
261,Neiafu,TO,-18.65,-173.9833,81.28,78,40,11.5,scattered clouds
262,Kamaishi,JP,39.2667,141.8833,50.81,69,39,11.72,light rain
263,Ribeira Grande,PT,38.5167,-28.7,63.77,71,83,10.51,broken clouds
264,Ponta Do Sol,PT,32.6667,-17.1,65.03,64,17,9.24,few clouds
265,Megion,RU,61.0296,76.1136,-8.99,100,82,5.39,broken clouds
266,Cidreira,BR,-30.1811,-50.2056,69.28,86,73,12.3,broken clouds
267,Katsuura,JP,35.1333,140.3,55.11,68,100,7.65,light rain
268,Cabo San Lucas,MX,22.8909,-109.9124,76.51,72,100,5.12,overcast clouds
269,Galveston,US,29.3669,-94.9669,75.38,94,40,5.99,scattered clouds
270,Juneau,US,58.3019,-134.4197,28.45,94,90,8.05,light snow
271,Ilulissat,GL,69.2167,-51.1,17.38,67,90,14.52,overcast clouds
272,Sitangkai,PH,4.6628,119.3928,81.77,73,67,5.95,broken clouds
273,Chabahar,IR,25.2919,60.643,74.95,43,20,4.16,few clouds
274,Moussoro,TD,13.6408,16.4901,69.66,20,55,11.5,broken clouds
275,Agadez,NE,19.75,10.25,57.42,23,21,4.7,few clouds
276,Chimbote,PE,-9.0853,-78.5783,65.46,88,100,6.55,overcast clouds
277,Ust-Karsk,RU,52.7011,118.8077,18.73,75,50,6.78,scattered clouds
278,Tura,IN,25.5198,90.2201,72.39,68,100,2.33,overcast clouds
279,Kirundo,BI,-2.5833,30.1667,65.17,92,100,0.83,overcast clouds
280,Saint-Philippe,RE,-21.3585,55.7679,83.75,72,18,11.1,few clouds
281,Bajil,YE,15.0584,43.2851,76.77,64,0,1.01,clear sky
282,Port Hardy,CA,50.6996,-127.4199,33.76,100,90,11.5,heavy snow
283,Havelock,US,34.8791,-76.9013,55.35,93,80,4.79,broken clouds
284,Glendive,US,47.1053,-104.7125,10.49,79,90,10.36,overcast clouds
285,Volokonovka,RU,50.4827,37.8563,29.7,73,99,7.2,overcast clouds
286,Medea,DZ,36.2642,2.7539,45.05,76,48,14.38,scattered clouds
287,Alta Floresta,BR,-9.8756,-56.0861,71.73,98,100,2.01,overcast clouds
288,Santa Cruz,BO,-17.8,-63.1667,76.46,78,75,16.11,broken clouds
289,Asau,RO,46.4333,26.4,32.95,82,100,2.06,overcast clouds
290,Lazarev,RU,52.225,141.5131,25.63,78,100,15.28,overcast clouds
291,Cabedelo,BR,-6.9811,-34.8339,79.47,80,36,14.27,scattered clouds
292,Dubbo,AU,-32.25,148.6167,66.33,82,75,16.11,broken clouds
293,Dalbandin,PK,28.8947,64.4101,54.97,39,15,7.76,few clouds
294,Nouadhibou,MR,20.931,-17.0347,64.38,42,49,12.66,scattered clouds
295,Iwanai,JP,42.9744,140.5089,43.36,74,15,4.81,few clouds
296,Gazojak,TM,41.1875,61.4036,41.67,75,85,11.41,overcast clouds
297,Manacapuru,BR,-3.2997,-60.6206,77.58,92,81,2.71,broken clouds
298,Berdigestyakh,RU,62.0989,126.6992,-22.74,99,88,2.46,overcast clouds
299,Morondava,MG,-20.2833,44.2833,84.13,62,3,3.51,clear sky
300,Karratha,AU,-20.7377,116.8463,102.49,26,54,18.39,broken clouds
301,Sechura,PE,-5.5569,-80.8222,66.63,83,100,9.91,overcast clouds
302,Kysyl-Syr,RU,63.8986,122.7617,-26.45,95,83,5.21,broken clouds
303,Ahipara,NZ,-35.1667,173.1667,72.34,71,98,10.6,overcast clouds
304,Porto Novo,BJ,6.4965,2.6036,77.88,88,47,4.56,scattered clouds
305,Vardo,NO,70.3705,31.1107,14.2,78,86,20.85,overcast clouds
306,Porto Santo,PT,33.072,-16.3415,64.78,59,75,13.8,broken clouds
307,Canutama,BR,-6.5339,-64.3831,72.93,99,100,2.73,overcast clouds
308,Cherskiy,RU,68.75,161.3,-30.33,97,100,3.56,overcast clouds
309,Tete,MZ,-16.1564,33.5867,86.09,48,31,8.05,haze
310,Baruun-Urt,MN,46.6806,113.2792,26.01,52,0,19.55,clear sky
311,Namwala,ZM,-15.7504,26.4384,78.35,41,97,6.15,overcast clouds
312,Gimli,CA,50.6336,-96.9907,-2.56,90,100,17.72,overcast clouds
313,Novyy Buyan,RU,53.6861,50.0469,19.56,93,32,3.65,scattered clouds
314,Yulara,AU,-25.2406,130.9889,95.02,15,0,0.94,clear sky
315,Bahia Blanca,AR,-38.7196,-62.2724,63.0,66,0,7.52,clear sky
316,Broome,US,42.2506,-75.833,44.82,68,100,4.0,overcast clouds
317,Ca Mau,VN,9.1769,105.15,84.07,61,44,8.3,scattered clouds
318,Grand Gaube,MU,-20.0064,57.6608,81.37,69,21,7.0,few clouds
319,Yerbogachen,RU,61.2767,108.0108,-13.16,97,57,4.61,broken clouds
320,Sembakung,ID,3.8167,117.25,78.73,92,100,0.27,moderate rain
321,Saint Simons,US,31.1352,-81.3901,57.24,97,1,0.0,mist
322,Aktau,KZ,43.65,51.2,32.58,60,52,6.51,broken clouds
323,Harstad,NO,68.799,16.5293,22.23,100,17,7.43,few clouds
324,Orotukan,RU,62.2667,151.7,-33.74,92,36,4.97,scattered clouds
325,Vallenar,CL,-28.5708,-70.7581,66.94,49,32,3.15,scattered clouds
326,Nybro,SE,56.7446,15.9071,28.04,96,78,6.35,light snow
327,Denpasar,ID,-8.65,115.2167,82.06,83,40,16.11,scattered clouds
328,Alice Springs,AU,-23.7,133.8833,90.95,29,20,8.05,few clouds
329,Roald,NO,62.5833,6.1333,36.34,64,90,18.41,overcast clouds
330,Padang,ID,-0.9492,100.3543,87.85,63,57,5.5,broken clouds
331,Flinders,AU,-34.5833,150.8552,71.19,64,100,10.27,light rain
332,Fernie,CA,49.5,-115.0687,15.35,90,97,3.06,overcast clouds
333,Rawson,AR,-43.3002,-65.1023,63.52,62,2,6.24,clear sky
334,Husavik,IS,66.0449,-17.3389,39.11,83,100,17.27,overcast clouds
335,Charters Towers,AU,-20.1,146.2667,94.93,27,25,8.46,scattered clouds
336,Marsa Matruh,EG,31.3525,27.2453,60.46,66,0,8.34,clear sky
337,Vestmanna,FO,62.1564,-7.1664,36.52,87,75,31.07,broken clouds
338,Komsomolskiy,UZ,40.4272,71.7189,41.72,70,75,4.61,mist
339,Talnakh,RU,69.4865,88.3972,-14.8,99,100,13.78,light snow
340,Lorengau,PG,-2.0226,147.2712,82.65,83,99,14.58,moderate rain
341,Ulladulla,AU,-35.35,150.4667,69.76,62,100,9.82,moderate rain
342,Waycross,US,31.2136,-82.354,52.32,93,90,0.0,mist
343,Isangel,VU,-19.55,169.2667,89.71,62,20,6.91,few clouds
344,Hokitika,NZ,-42.7167,170.9667,56.84,64,97,9.57,overcast clouds
345,Kichmengskiy Gorodok,RU,59.9816,45.7854,-6.79,99,33,1.61,scattered clouds
346,Banda Aceh,ID,5.5577,95.3222,84.13,68,68,6.76,broken clouds
347,Sulangan,PH,11.1373,123.7228,81.79,72,51,17.96,broken clouds
348,Kahului,US,20.8947,-156.47,73.85,95,75,28.77,heavy intensity rain
349,Niesky,DE,51.2924,14.8211,36.03,94,100,5.28,light snow
350,Ubatuba,BR,-23.4339,-45.0711,71.24,93,73,4.52,broken clouds
351,Ha Giang,VN,22.8333,104.9833,75.27,51,2,3.85,clear sky
352,Haines Junction,CA,60.7522,-137.5108,-3.77,100,100,1.57,overcast clouds
353,Iskateley,RU,67.6803,53.1512,21.24,89,100,20.67,overcast clouds
354,Souillac,MU,-20.5167,57.5167,81.36,74,40,12.66,scattered clouds
355,Sao Miguel Do Araguaia,BR,-13.275,-50.1628,71.62,94,4,1.86,clear sky
356,Waipawa,NZ,-41.4122,175.5153,52.45,96,100,7.47,light rain
357,Floresta,BR,-8.6011,-38.5686,75.99,74,3,11.7,clear sky
358,Whitecourt,CA,54.1502,-115.6855,6.64,87,77,2.28,broken clouds
359,Sangar,RU,63.9242,127.4739,-38.18,100,80,1.25,broken clouds
360,Narasannapeta,IN,18.4167,84.05,78.62,77,62,5.01,broken clouds
361,Camara De Lobos,PT,32.6333,-16.9667,65.03,78,40,7.0,scattered clouds
362,Huangchuan,CN,32.1272,115.0394,64.04,22,0,10.16,clear sky
363,Kudahuvadhoo,MV,2.6708,72.8944,82.27,77,24,14.54,few clouds
364,Salalah,OM,17.0151,54.0924,77.16,31,0,5.59,clear sky
365,Oudtshoorn,ZA,-33.5907,22.2014,61.16,82,96,3.98,light rain
366,Berlevag,NO,70.8578,29.0864,28.02,93,97,23.0,light snow
367,Takaka,NZ,-40.85,172.8,57.56,96,100,3.83,overcast clouds
368,Nabire,ID,-3.3667,135.4833,91.96,54,90,6.51,overcast clouds
369,Laem Sing,TH,12.4816,102.0738,87.06,100,75,7.43,broken clouds
370,Vanimo,PG,-2.6741,141.3028,86.31,72,69,11.16,broken clouds
371,Westport,US,41.1415,-73.3579,51.8,76,90,1.99,overcast clouds
372,Pokhara,NP,28.2333,83.9833,71.51,39,3,4.76,clear sky
373,San Rafael,AR,-34.6177,-68.3301,67.33,67,1,7.0,clear sky
374,Longyearbyen,SJ,78.2186,15.6401,22.84,86,75,14.97,light snow
375,Huntington Beach,US,33.6603,-117.9992,68.14,93,1,0.0,haze
376,Tabou,CI,4.423,-7.3528,78.49,86,53,7.18,light rain
377,Ust-Nera,RU,64.5667,143.2,-20.06,98,100,5.61,overcast clouds
378,Dali,CN,25.7,100.1833,59.68,58,55,2.06,broken clouds
379,Doka,SD,13.5167,35.7667,75.16,34,0,9.55,clear sky
380,Ola,RU,59.5833,151.2833,-8.3,91,53,7.02,broken clouds
381,Fallon,US,39.4735,-118.7774,33.67,60,1,0.0,clear sky
382,Port-Cartier,CA,50.0334,-66.8654,13.44,68,41,5.03,scattered clouds
383,Esperance,AU,-33.8667,121.9,66.04,66,87,18.77,overcast clouds
384,Lahaina,US,20.8783,-156.6825,73.81,95,100,28.92,heavy intensity rain
385,Christchurch,NZ,-43.5333,172.6333,53.8,85,90,1.01,overcast clouds
386,Doha,QA,25.2867,51.5333,67.98,60,0,3.44,clear sky
387,Canberra,AU,-35.2835,149.1281,69.75,63,40,1.01,light rain
388,Korem,ET,12.5058,39.5228,52.99,43,0,2.77,clear sky
389,Maldonado,UY,-34.6667,-54.9167,65.59,97,18,3.42,few clouds
390,Asyut,EG,27.181,31.1837,51.98,66,97,4.27,overcast clouds
391,Biak,ID,-0.9131,122.8766,83.48,73,100,1.45,overcast clouds
392,Ritchie,ZA,-29.038,24.6028,58.21,50,0,7.63,clear sky
393,Ancud,CL,-41.8697,-73.8203,58.42,81,0,2.06,clear sky
394,Alofi,NU,-19.0595,-169.9187,82.29,65,75,18.41,broken clouds
395,Hudson Bay,CA,52.85,-102.3842,-12.39,93,59,7.14,broken clouds
396,Kodinsk,RU,58.6881,99.1844,26.15,96,100,2.8,light snow
397,Kokopo,PG,-4.352,152.2633,82.29,78,52,3.04,moderate rain
398,Yanam,IN,16.7333,82.2167,86.4,62,13,5.23,few clouds
399,Salina,US,38.8403,-97.6114,41.18,36,1,24.16,clear sky
400,Ridgecrest,US,35.6225,-117.6709,59.43,21,1,5.75,clear sky
401,Pacifica,US,37.6138,-122.4869,56.68,92,20,1.01,mist
402,Eyl,SO,7.9803,49.8164,78.37,61,12,17.0,few clouds
403,Mabaruma,GY,8.2,-59.7833,72.54,98,52,2.21,broken clouds
404,Edeia,BR,-17.3383,-49.9314,70.5,88,60,4.9,broken clouds
405,Anloga,GH,5.7947,0.8973,81.05,82,60,11.36,broken clouds
406,Duma,CN,34.7653,108.135,46.47,25,1,4.56,clear sky
407,Yahotyn,UA,50.2798,31.7625,30.11,97,100,10.94,light snow
408,Baiyin,CN,36.5583,104.2081,37.33,26,37,3.74,scattered clouds
409,Faya,SA,18.3851,42.4509,57.72,40,0,2.86,clear sky
410,Tynda,RU,55.1667,124.7167,10.53,65,69,3.71,broken clouds
411,Hohhot,CN,40.8106,111.6522,34.09,29,0,2.24,clear sky
412,Namatanai,PG,-3.6667,152.4333,85.24,68,60,5.86,light rain
413,Pevek,RU,69.7008,170.3133,-9.53,96,100,16.62,light snow
414,Koumra,TD,8.9126,17.5539,74.25,32,77,5.01,broken clouds
415,Nador,MA,35.174,-2.9287,57.45,67,0,13.8,clear sky
416,Sibolga,ID,1.7427,98.7792,86.38,61,75,4.54,broken clouds
417,Pangody,RU,65.85,74.4859,-23.53,98,16,10.04,few clouds
418,Naze,JP,28.3667,129.4833,64.98,61,90,11.59,overcast clouds
419,Wilmington,US,34.2257,-77.9447,60.85,95,75,0.0,broken clouds
420,Olds,CA,51.7834,-114.102,1.85,92,87,6.64,overcast clouds
421,Bouca,CF,6.5105,18.2733,71.56,58,86,0.74,overcast clouds
422,Camacupa,AO,-12.0167,17.4833,62.04,94,100,3.11,overcast clouds
423,La Asuncion,VE,11.0333,-63.8628,78.71,81,86,16.87,overcast clouds
424,Nuuk,GL,64.1835,-51.7216,22.86,77,100,21.94,light snow
425,Jardim,BR,-21.4803,-56.1381,76.24,58,37,3.4,scattered clouds
426,Urusha,RU,54.05,122.9,15.26,57,79,4.72,broken clouds
427,Gorontalo,ID,0.5412,123.0595,84.65,77,100,3.38,overcast clouds
428,Harper,LR,4.375,-7.7169,79.12,84,46,7.85,light rain
429,Manokwari,ID,-0.8667,134.0833,84.0,74,88,3.51,overcast clouds
430,Corinto,GR,37.9407,22.9573,57.69,82,35,6.38,scattered clouds
431,Mazeikiai,LT,56.3167,22.3333,9.68,95,26,5.91,scattered clouds
432,Gbadolite,CD,4.2833,21.0167,71.91,87,96,2.55,overcast clouds
433,Pisco,PE,-13.7,-76.2167,66.25,82,0,10.36,clear sky
434,Seoul,KR,37.5683,126.9778,51.37,37,0,3.44,clear sky
435,Crixas,BR,-14.5489,-49.9692,70.05,95,10,1.14,clear sky
436,Ketchikan,US,55.3422,-131.6461,25.27,93,75,3.44,broken clouds
437,Chicama,PE,-7.8447,-79.1469,65.48,87,100,5.7,overcast clouds
438,Plettenberg Bay,ZA,-34.0527,23.3716,63.9,94,100,8.08,moderate rain
439,Kindu,CD,-2.95,25.95,70.27,99,100,1.3,overcast clouds
440,Salta,AR,-24.7859,-65.4117,66.49,96,90,1.99,drizzle
441,Macia,MZ,-25.0269,33.0989,84.07,50,85,12.28,overcast clouds
442,Klaksvik,FO,62.2266,-6.589,38.32,71,100,31.47,overcast clouds
443,Bridlington,GB,54.0831,-0.1919,40.14,81,100,13.13,overcast clouds
444,Ciudad Real,ES,39.0,-4.0,38.1,94,16,1.01,few clouds
445,Alvorada,BR,-12.48,-49.1247,71.24,94,24,1.81,few clouds
446,Lata,PT,40.1629,-8.3327,48.92,96,37,1.79,scattered clouds
447,Shimanovsk,RU,52.0,127.7,17.64,68,27,10.49,scattered clouds
448,Saryg-Sep,RU,51.5,95.6,11.91,85,100,1.45,overcast clouds
449,Bilibino,RU,68.0546,166.4372,-20.06,98,100,3.2,overcast clouds
450,Bolgatanga,GH,10.7856,-0.8514,73.18,18,51,6.46,broken clouds
451,Along,IN,28.1667,94.7667,71.89,54,100,1.59,overcast clouds
452,Hanna,CA,51.6334,-111.9018,-0.38,79,40,5.99,scattered clouds
453,Madingou,CG,-4.1536,13.55,72.46,97,100,2.44,light rain
454,Weatherford,US,32.7593,-97.7972,70.07,85,0,1.01,clear sky
455,Chivilcoy,AR,-34.8957,-60.0167,62.02,10,0,4.0,clear sky
456,Labuan,MY,5.2767,115.2417,84.36,77,100,1.66,overcast clouds
457,Lima,PE,-12.0432,-77.0282,66.9,84,90,12.66,overcast clouds
458,Hamilton,US,39.1834,-84.5333,61.57,92,90,1.99,mist
459,Davila,PH,18.4726,120.5763,80.58,73,96,22.35,overcast clouds
460,Darhan,MN,49.4867,105.9228,21.31,75,31,6.33,scattered clouds
461,Calama,CL,-22.4667,-68.9333,56.71,22,71,5.53,broken clouds
462,Ballina,AU,-28.8667,153.5667,72.79,88,74,7.9,light rain
463,Damghan,IR,36.1683,54.348,44.29,38,5,1.03,clear sky
464,Bosaso,SO,11.2842,49.1816,76.42,63,40,2.51,scattered clouds
465,Agropoli,IT,40.3469,14.9966,47.08,85,100,4.56,overcast clouds
466,Berbera,SO,10.4396,45.0143,77.41,62,16,4.52,few clouds
467,Banjar,ID,-8.19,114.9675,82.26,79,100,2.95,light rain
468,Macamic,CA,48.7502,-78.9996,16.03,88,100,9.98,overcast clouds
469,Pemangkat,ID,1.1667,108.9667,84.24,67,82,11.23,broken clouds
470,Fort Nelson,CA,58.8053,-122.7002,-20.07,100,50,1.57,scattered clouds
471,Tibati,CM,6.4667,12.6333,70.27,37,100,2.64,overcast clouds
472,Teahupoo,PF,-17.8333,-149.2667,76.96,75,82,17.69,light rain
473,Tromso,NO,69.6496,18.957,17.62,73,40,18.41,scattered clouds
474,Ulaangom,MN,49.9811,92.0667,13.95,86,100,1.48,overcast clouds
475,Shasta Lake,US,40.6804,-122.3708,51.93,66,69,5.99,broken clouds
476,Shubarshi,KZ,48.5872,57.1869,31.69,69,100,7.25,overcast clouds
477,Te Anau,NZ,-45.4167,167.7167,53.74,61,97,5.03,overcast clouds
478,Zyryanka,RU,65.75,150.85,-41.24,95,55,6.17,broken clouds
479,Beloha,MG,-25.1667,45.05,88.86,37,6,6.49,clear sky
480,Buala,SB,-8.145,159.5921,79.21,86,100,18.86,overcast clouds
481,Chulman,RU,56.8479,124.9104,-0.45,93,66,3.04,broken clouds
482,Bratsk,RU,56.1325,101.6142,25.29,86,100,12.17,overcast clouds
483,Bathsheba,BB,13.2167,-59.5167,81.21,74,40,21.85,scattered clouds
484,Nuevo Progreso,MX,23.1667,-97.95,75.6,80,98,3.0,overcast clouds
485,Puerto Ayacucho,VE,5.6639,-67.6236,76.05,82,100,2.77,overcast clouds
486,Inirida,CO,3.8653,-67.9239,73.18,97,98,1.99,overcast clouds
487,Manavalakurichi,IN,8.1333,77.3,86.09,69,95,2.04,overcast clouds
488,Casablanca,MA,33.5928,-7.6192,46.62,77,12,8.34,few clouds
489,Mandalgovi,MN,45.7625,106.2708,26.96,30,0,17.13,clear sky
490,Tongzi,CN,28.7829,105.0877,57.09,70,100,2.19,overcast clouds
491,Kargasok,RU,59.0556,80.8572,18.91,96,100,8.37,light snow
492,Bubaque,GW,11.2833,-15.8333,80.64,64,65,8.16,broken clouds
493,Meulaboh,ID,4.1363,96.1285,84.65,67,52,3.67,broken clouds
494,Fare,PF,-16.7,-151.0167,79.9,76,28,13.71,light rain
495,Sobolevo,RU,54.4299,31.8996,27.01,96,100,6.33,overcast clouds
496,Deputatskiy,RU,69.3,139.9,-20.51,99,100,0.45,overcast clouds
497,Atikokan,CA,48.7555,-91.6216,22.24,94,100,12.03,light snow
498,Nortelandia,BR,-14.4547,-56.8028,72.7,97,100,1.57,overcast clouds
499,Jati,PK,24.3539,68.2671,77.16,17,2,8.9,clear sky
500,Prince Rupert,CA,54.3161,-130.3201,30.45,78,100,4.94,overcast clouds
501,Steinbach,DE,50.1667,8.5667,36.86,100,20,0.0,few clouds
502,Alberton,CA,46.8168,-64.0654,24.71,59,85,7.54,overcast clouds
503,Constantine,DZ,36.365,6.6147,38.61,81,75,10.36,broken clouds
504,Slantsy,RU,59.1182,28.0914,-4.65,97,14,4.43,few clouds
505,Kondagaon,IN,19.6,81.6667,75.97,68,41,6.13,scattered clouds
506,Eloy,US,32.7559,-111.5548,61.48,33,0,1.1,clear sky
507,La Trinitaria,MX,16.1167,-92.05,55.99,87,0,5.3,clear sky
508,North Bend,US,43.4065,-124.2243,47.95,99,96,5.5,overcast clouds
509,Veinticinco De Mayo,AR,-35.4323,-60.1727,62.06,93,19,3.51,few clouds
510,Ravar,IR,31.2656,56.8055,56.35,29,100,2.19,overcast clouds
511,Morro Bay,US,35.3658,-120.8499,59.5,73,10,7.25,clear sky
512,New Castle,US,41.0037,-80.347,53.11,78,90,8.05,light rain
513,Araguacu,BR,-12.9306,-49.8264,71.33,95,8,2.24,clear sky
514,Soubre,CI,5.7856,-6.6083,72.77,99,33,2.53,scattered clouds
515,Hervey Bay,AU,-25.2986,152.8535,84.04,72,36,5.01,scattered clouds
516,Nanortalik,GL,60.1432,-45.2371,26.08,61,100,37.11,light snow
517,Enumclaw,US,47.2043,-121.9915,36.81,95,100,1.48,overcast clouds
518,Oranjemund,NA,-28.55,16.4333,61.97,84,3,6.06,clear sky
519,Derzhavinsk,KZ,51.1,66.3167,18.01,86,100,8.21,overcast clouds
520,Aberdeen,GB,57.1437,-2.0981,39.2,88,40,19.57,scattered clouds
521,Tucurui,BR,-3.7661,-49.6725,74.93,94,99,1.74,overcast clouds
522,Birnin Kebbi,NG,12.4539,4.1975,68.31,20,90,8.21,overcast clouds
523,Shiyan,CN,32.6475,110.7781,62.47,28,1,3.02,clear sky
524,Digby,CA,44.6169,-65.7655,28.58,67,84,5.01,broken clouds
525,Chokwe,MZ,-24.5333,32.9833,83.82,53,67,12.1,broken clouds
526,Bac Lieu,VN,9.285,105.7244,82.2,66,40,6.82,scattered clouds
527,Santa Fe,AR,-31.6333,-60.7,66.36,76,12,5.48,light rain
528,Krasnoselkup,RU,65.7,82.4667,-34.51,100,43,4.88,scattered clouds
529,Shimoda,JP,34.6667,138.95,57.31,81,100,16.37,overcast clouds
530,Winnemucca,US,40.973,-117.7357,30.25,69,1,5.75,clear sky
531,Mount Isa,AU,-20.7333,139.5,92.97,31,83,14.97,broken clouds
532,Kangaatsiaq,GL,68.3065,-53.4641,25.68,79,100,20.02,overcast clouds
533,Aquiraz,BR,-3.9014,-38.3911,84.22,70,41,15.35,scattered clouds
534,Camacha,PT,33.0833,-16.3333,62.02,59,75,13.8,broken clouds
535,Pechenga,RU,69.5259,31.1703,7.66,78,33,27.34,scattered clouds
536,Grants,US,35.1473,-107.8514,26.83,59,1,0.0,clear sky
537,Russkaya Polyana,UA,49.417,31.9201,35.87,91,100,12.95,overcast clouds
538,Strezhevoy,RU,60.7333,77.5889,-9.02,100,86,4.18,overcast clouds
539,Telimele,GN,10.9167,-13.3333,68.22,79,76,0.87,broken clouds
540,Goundam,ML,16.4145,-3.6708,64.22,15,58,8.84,broken clouds
541,Sao Felix Do Xingu,BR,-6.6447,-51.995,70.0,94,95,0.69,overcast clouds
542,Oyama,JP,36.3,139.8,56.89,61,100,3.98,light rain
543,Nara,JP,34.6851,135.8049,56.97,75,100,3.58,overcast clouds
544,Kaitangata,NZ,-46.2817,169.8464,53.92,57,73,9.44,broken clouds
545,Vrangel,RU,42.7297,133.0839,43.86,80,30,4.07,scattered clouds
546,Arman,RU,59.7,150.1667,-11.15,84,7,6.22,clear sky
547,Hornepayne,CA,49.2138,-84.7705,17.37,93,100,10.56,snow
548,Belaya Gora,RU,68.5333,146.4167,-28.16,97,100,2.19,overcast clouds
549,Nowy Dwor Mazowiecki,PL,52.4302,20.7165,34.38,97,75,8.05,mist
550,Lagos,NG,6.5833,3.75,77.09,90,23,3.0,few clouds
551,Malegaon,IN,20.55,74.5333,76.06,46,0,5.3,clear sky
552,Shellbrook,CA,53.2168,-106.4011,-14.3,90,12,7.23,few clouds
553,Goderich,CA,43.7501,-81.7165,39.9,98,100,18.5,overcast clouds
554,La Ronge,CA,55.1001,-105.2842,-10.55,90,17,8.41,few clouds
555,Bourail,NC,-21.5667,165.4833,84.74,59,49,1.99,scattered clouds
556,Keetmanshoop,NA,-26.5833,18.1333,57.31,68,0,5.55,clear sky
557,Shambu,ET,9.5667,37.1,56.35,51,3,1.92,clear sky
558,Tarakan,ID,3.3,117.6333,78.3,94,75,3.44,moderate rain
559,Iquitos,PE,-3.7481,-73.2472,75.24,94,75,4.61,broken clouds
560,Nerchinskiy Zavod,RU,51.3088,119.61,12.9,83,31,5.5,scattered clouds
561,Caravelas,BR,-17.7125,-39.2481,72.82,90,3,5.08,clear sky
562,Disna,BY,55.568,28.1971,17.6,96,100,6.42,overcast clouds
563,Clarence Town,AU,-32.5833,151.7833,74.14,67,99,7.07,light rain
564,Mecca,SA,21.4267,39.8261,75.58,72,2,3.53,clear sky
565,Houston,US,29.7633,-95.3633,75.79,87,90,7.0,overcast clouds
566,Shelburne,CA,44.0787,-80.2041,33.67,99,100,12.57,snow
567,Marzuq,YE,14.4,46.4667,66.09,30,5,2.24,clear sky
568,Khandbari,NP,27.3747,87.2039,71.11,53,1,4.43,clear sky
569,Bonthe,SL,7.5264,-12.505,78.84,82,41,3.27,scattered clouds
570,Cairns,AU,-16.9167,145.7667,98.06,53,11,17.27,few clouds
571,Kununurra,AU,-15.7667,128.7333,93.18,55,100,5.75,overcast clouds
572,Mafeteng,LS,-29.823,27.2374,57.0,83,20,12.15,few clouds
573,Payakumbuh,ID,-0.2202,100.6308,85.82,53,48,1.72,scattered clouds
574,Sarana,RU,56.4773,57.7259,10.78,85,83,6.58,broken clouds
575,Mana,GF,5.6592,-53.7767,75.56,94,100,9.48,light rain
576,Santa Maria Da Vitoria,BR,-13.3947,-44.1886,67.98,96,3,1.63,clear sky
577,Saint-Pierre,RE,-21.3393,55.4781,83.84,65,0,5.75,clear sky
578,Khandyga,RU,62.6667,135.6,-11.78,96,100,3.11,overcast clouds
579,Sal Rei,CV,16.1833,-22.9167,72.16,71,99,19.35,overcast clouds
580,Veraval,IN,20.9,70.3667,79.18,49,0,11.99,clear sky
581,Umm Lajj,SA,25.0213,37.2685,71.87,54,43,10.4,scattered clouds
582,Matara,LK,5.9485,80.5353,83.89,72,77,5.97,broken clouds
583,Balaguer,ES,41.7912,0.8109,39.56,82,1,1.59,clear sky
584,Kaseda,JP,31.4167,130.3167,64.85,56,57,5.1,broken clouds
585,Belmonte,BR,-15.8631,-38.8828,73.9,87,1,2.53,clear sky
586,Kamloops,CA,50.6665,-120.3192,24.75,74,100,3.53,overcast clouds
587,Bowen,AU,-20.0167,148.2333,84.7,59,14,19.13,few clouds
588,Labrea,BR,-7.2586,-64.7981,73.89,100,100,1.66,overcast clouds
589,Lipari,IT,38.4674,14.954,56.79,77,99,20.22,overcast clouds
590,Ankazoabo,MG,-22.2833,44.5167,87.96,39,0,8.81,clear sky
591,Shenjiamen,CN,29.9576,122.298,57.65,59,0,8.01,clear sky
592,Constitucion,CL,-35.3333,-72.4167,55.53,92,5,6.78,clear sky
593,Pilani,IN,28.3684,75.6041,70.88,48,0,2.13,clear sky
594,Atambua,ID,-9.1061,124.8925,82.67,73,98,4.38,overcast clouds
595,Mirabad,AF,30.4362,61.8383,57.16,38,11,8.46,few clouds
596,Hami,CN,42.8,93.45,34.61,43,57,6.49,broken clouds
597,Kushmurun,KZ,52.4503,64.6311,24.96,89,100,11.45,overcast clouds
598,Mehran,IR,33.1222,46.1646,54.88,41,49,4.83,scattered clouds
599,Zheleznodorozhnyy,RU,55.7503,38.0042,27.12,97,100,4.43,overcast clouds
600,Ouesso,CG,1.6136,16.0517,70.7,94,100,1.21,overcast clouds
601,Shingu,JP,33.7333,135.9833,63.59,80,100,4.97,overcast clouds
602,Bone,DE,51.9669,12.1396,34.29,93,100,6.46,light snow
603,Havre-Saint-Pierre,CA,50.2334,-63.5986,21.88,55,60,13.82,broken clouds
604,Palanga,LT,55.9175,21.0686,17.62,79,75,14.97,broken clouds
605,Jiuquan,CN,39.7432,98.5174,32.11,37,49,10.4,scattered clouds
606,San Andres,CO,12.5847,-81.7006,82.42,83,20,13.8,few clouds
607,Jasper,US,37.2001,-94.3502,52.54,48,1,8.99,clear sky
608,Atasu,KZ,48.6814,71.6433,32.38,99,100,10.31,light snow
609,Sao Raimundo Nonato,BR,-9.0153,-42.6994,72.9,75,22,2.24,few clouds
610,Neuquen,AR,-38.9516,-68.0591,69.69,60,0,4.61,clear sky
611,Tommot,RU,58.9564,126.2925,3.61,89,100,5.48,overcast clouds
612,Lokosovo,RU,61.1333,74.8167,-12.44,100,77,4.36,broken clouds
613,Guanay,BO,-15.4975,-67.8797,71.83,100,100,0.56,light rain
614,Fort Saint James,CA,54.4333,-124.25,20.7,74,100,1.88,overcast clouds
615,Guanica,PR,17.9716,-66.908,77.2,75,86,7.76,overcast clouds
616,Sao Jose Da Coroa Grande,BR,-8.8978,-35.1478,76.95,85,17,10.96,few clouds
617,Alyangula,AU,-13.8483,136.4192,88.79,54,88,8.48,overcast clouds
618,Jibuti,DJ,11.5,42.5,71.82,62,0,15.55,clear sky
619,Karia,NG,11.7306,11.1629,66.54,20,61,8.66,broken clouds
620,Praia Da Vitoria,PT,38.7333,-27.0667,59.25,88,40,5.39,scattered clouds
621,Abasolo,MX,20.45,-101.5167,58.53,56,100,3.33,overcast clouds
622,Manado,ID,1.487,124.8455,90.37,66,40,9.22,scattered clouds
623,Timra,SE,62.487,17.3257,12.67,79,90,9.22,light snow
624,Thurso,GB,58.5927,-3.5259,40.95,73,100,20.38,moderate rain
625,Nemuro,JP,43.3236,145.575,43.23,73,43,23.26,scattered clouds
626,Sakiai,LT,54.9547,23.0358,17.85,91,100,10.47,overcast clouds
627,Kajaani,FI,64.2273,27.7285,-7.55,77,0,2.3,clear sky
628,Erzincan,TR,39.75,39.5,22.3,100,0,2.3,clear sky
629,Pudozh,RU,61.8099,36.5345,4.68,97,84,4.63,broken clouds
630,Khovu-Aksy,RU,51.1333,93.6,16.56,74,97,2.28,overcast clouds
631,Lexington,US,37.9887,-84.4777,61.92,85,90,3.0,mist
632,Vila Franca Do Campo,PT,37.7167,-25.4333,61.21,84,27,2.17,scattered clouds
633,Sarandi,BR,-23.4436,-51.8739,72.36,60,83,3.06,broken clouds
634,Ust-Kuyga,RU,70.0167,135.6,-19.35,98,100,0.72,overcast clouds
635,Wenzhou,CN,27.9994,120.6668,65.46,44,1,1.77,clear sky
636,Kupang,ID,-10.1667,123.5833,86.95,65,88,7.0,overcast clouds
637,Antofagasta,CL,-23.65,-70.4,63.0,72,86,0.94,overcast clouds
638,Cedral,MX,23.8,-100.7333,62.42,41,86,6.44,overcast clouds
639,Merritt Island,US,28.5392,-80.672,70.02,90,40,0.0,scattered clouds
640,Atar,MR,20.5169,-13.0499,66.58,12,100,7.87,overcast clouds
641,Dunedin,NZ,-45.8742,170.5036,54.81,66,95,3.0,overcast clouds
642,Palafrugell,ES,41.9174,3.1631,49.46,17,36,18.68,scattered clouds
643,Urucara,BR,-2.5364,-57.76,74.68,85,66,1.21,broken clouds
644,Sao Gabriel Da Cachoeira,BR,-0.1303,-67.0892,71.92,99,99,1.77,overcast clouds
645,Stranraer,GB,54.9023,-5.0273,42.22,95,100,29.17,overcast clouds
646,Sambava,MG,-14.2667,50.1667,80.17,72,26,10.07,light rain
647,Santa Rosalia,MX,27.3167,-112.2833,66.45,43,0,3.44,clear sky
648,Teya,RU,60.3778,92.6267,16.74,95,100,1.99,light snow
649,Sao Geraldo Do Araguaia,BR,-6.4006,-48.555,72.57,96,68,0.94,broken clouds
650,Zabid,YE,14.1951,43.3152,77.72,59,0,3.6,clear sky
651,Inhambane,MZ,-23.865,35.3833,80.58,83,20,7.0,few clouds
652,Wyndham,US,37.6985,-77.6125,49.78,74,90,0.0,overcast clouds
653,Halifax,CA,44.6453,-63.5724,28.4,88,85,2.3,overcast clouds
654,Gusevskiy,RU,55.662,40.5627,24.04,96,100,2.75,overcast clouds
655,Sur,OM,22.5667,59.5289,75.99,57,0,1.12,clear sky
656,Darnah,LY,32.767,22.6367,58.96,73,10,19.15,clear sky
657,Sinnamary,GF,5.3833,-52.95,76.32,89,100,6.04,overcast clouds
658,Benito Juarez,MX,19.385,-99.165,60.01,53,40,5.01,scattered clouds
659,Tevaitoa,PF,-16.7833,-151.5,80.55,75,21,15.77,light rain
660,Buraydah,SA,26.326,43.975,59.45,48,34,7.58,scattered clouds
661,Ierapetra,GR,35.01,25.7353,60.98,76,19,1.01,few clouds
662,Mayo,US,38.8876,-76.5119,49.28,81,75,1.99,broken clouds
663,Luanda,AO,-8.8368,13.2343,76.96,86,100,5.32,overcast clouds
664,Babu,CN,24.4167,111.5167,69.91,27,49,4.27,scattered clouds
665,Puerto Baquerizo Moreno,EC,-0.9,-89.6,67.24,90,72,9.84,broken clouds
666,Kushiro,JP,42.975,144.3747,42.21,70,3,10.96,clear sky
667,Rio Grande,BR,-32.035,-52.0986,63.95,85,6,10.96,clear sky
668,Aklavik,CA,68.2191,-135.0107,-8.01,91,60,9.53,broken clouds
669,Monte Gordo,PT,37.1819,-7.4523,51.75,85,0,10.51,clear sky
670,Ternate,ID,0.8,127.4,83.52,72,100,8.55,overcast clouds
671,Buchanan,LR,5.8808,-10.0467,77.76,85,58,3.56,light rain
672,Itarema,BR,-2.9248,-39.9167,80.8,80,53,15.52,broken clouds
673,Visby,SE,57.6409,18.296,25.05,93,70,9.22,broken clouds
674,Muscat,OM,23.6139,58.5922,75.22,57,1,0.29,clear sky
675,Clyde River,CA,70.4692,-68.5914,10.63,85,100,23.02,light snow
676,Ashcroft,CA,50.7165,-121.2859,30.47,55,100,3.24,overcast clouds
677,Lawrenceville,US,33.9562,-83.988,58.98,87,90,4.61,overcast clouds
678,Nishihara,JP,26.1842,127.7558,74.86,54,40,17.27,scattered clouds
679,San Quintin,MX,30.4833,-115.95,58.53,86,0,7.67,clear sky
680,Jiwani,PK,25.05,61.7417,75.99,38,26,6.67,scattered clouds
681,Oakdale,US,44.963,-92.9649,30.15,84,90,3.0,light snow
682,Ilanskiy,RU,56.2358,96.065,30.92,83,100,15.82,overcast clouds
683,Lulea,SE,65.5842,22.1547,-2.13,84,75,5.75,light snow
684,Vestmannaeyjar,IS,63.4427,-20.2734,43.16,56,23,17.29,few clouds
685,Malanje,AO,-9.5402,16.341,62.96,96,100,3.47,overcast clouds
686,Tazovskiy,RU,67.4667,78.7,-10.21,85,100,16.49,overcast clouds
687,Penha,BR,-26.7694,-48.6458,68.72,90,94,2.15,overcast clouds
688,Akonolinga,CM,3.7667,12.25,67.89,98,100,1.1,overcast clouds
689,Havoysund,NO,70.9963,24.6622,27.48,93,100,32.23,snow
690,Ouadda,CF,8.0777,22.4007,69.96,30,95,4.47,overcast clouds
